{"type":"FeatureCollection","features":[{"type":"Feature","properties":{"Name":"Alex Rossoff and Glen","tag":"AR","Roles":"Frequent gleaner","Treechecker":"a few","Address":"915 Jackson st","Phone1":"206-661-6110","phone2":"","Email":"arossoff@gmail.com","Tools":"van","City":"Port Townsend","State":"WA","County":"Jefferson County","Zip":98368,"Country":"US","Accuracy Score":1,"Accuracy Type":"rooftop","Number":915,"Street":"Jackson St","Unit Type":"","Unit Number":"","Source":"Jefferson County GIS CC BY 4.0"},"geometry":{"type":"Point","coordinates":[-122.756488,48.121625]}},{"type":"Feature","properties":{"Name":"Cheryl Lowe","tag":"CL","Roles":"","Treechecker":"yes","Address":"776 53rd st","Phone1":"360-320-4113 cell","phone2":"360-320-6245 home","Email":"Cheryl.lowe@outlook.com","Tools":"","City":"Port Townsend","State":"WA","County":"Jefferson County","Zip":98368,"Country":"US","Accuracy Score":1,"Accuracy Type":"range_interpolation","Number":776,"Street":"53rd St","Unit Type":"","Unit Number":"","Source":"TIGER/Line® dataset from the US Census Bureau"},"geometry":{"type":"Point","coordinates":[-122.784641,48.138301]}},{"type":"Feature","properties":{"Name":"Dorothy Westlund","tag":"DW","Roles":"frequent gleaner","Treechecker":"?","Address":"4811 Bell St.","Phone1":"379-3578","phone2":"","Email":"17teas@gmail.com","Tools":"","City":"Port Townsend","State":"WA","County":"Jefferson County","Zip":98368,"Country":"US","Accuracy Score":1,"Accuracy Type":"rooftop","Number":4811,"Street":"Bell St","Unit Type":"","Unit Number":"","Source":"Jefferson County GIS CC BY 4.0"},"geometry":{"type":"Point","coordinates":[-122.803375,48.135078]}},{"type":"Feature","properties":{"Name":"Doug Van Allen","tag":"DVA","Roles":"Lead Gleaner, troubleshooter","Treechecker":"probably just orchard","Address":"1223 Garfield St","Phone1":"503-476-4478","phone2":"","Email":"dkva@aol.com","Tools":"8' ladder, picker tool, 5x8 utility trailer","City":"Port Townsend","State":"WA","County":"Jefferson County","Zip":98368,"Country":"US","Accuracy Score":1,"Accuracy Type":"rooftop","Number":1223,"Street":"Garfield St","Unit Type":"","Unit Number":"","Source":"Jefferson County GIS CC BY 4.0"},"geometry":{"type":"Point","coordinates":[-122.764125,48.117866]}},{"type":"Feature","properties":{"Name":"Katie and Steve Appleyard","tag":"KA","Roles":"frequent gleaner","Treechecker":"yes","Address":"1805 Wilson St","Phone1":"206-824-7085","phone2":"","Email":"kapple1805@wavecable.com","Tools":"","City":"Port Townsend","State":"WA","County":"Jefferson County","Zip":98368,"Country":"US","Accuracy Score":1,"Accuracy Type":"rooftop","Number":1805,"Street":"Wilson St","Unit Type":"","Unit Number":"","Source":"Jefferson County GIS CC BY 4.0"},"geometry":{"type":"Point","coordinates":[-122.788672,48.113136]}},{"type":"Feature","properties":{"Name":"Paula Vanderheul","tag":"PV","Roles":"Lead gleaner Chimacum","Treechecker":"yes","Address":"","Phone1":"774-2479","phone2":"","Email":"pvanderheul@gmail.com","Tools":"8' ladder and picker tool","City":"Port Hadlock","State":"WA","County":"Jefferson County","Zip":98339,"Country":"US","Accuracy Score":1,"Accuracy Type":"place","Number":"","Street":"","Unit Type":"","Unit Number":"","Source":"TIGER/Line® dataset from the US Census Bureau"},"geometry":{"type":"Point","coordinates":[-122.75822,48.03176]}},{"type":"Feature","properties":{"Name":"Rachel Van Laanen","tag":"RVL","Roles":"Lead gleaner Marrowstone","Treechecker":"Only Annie Mize and Neil Copeland","Address":"180 Fir Circle","Phone1":"385-3309","phone2":"","Email":"mysterybayfarm@gmail.com","Tools":"","City":"Port Hadlock","State":"WA","County":"Jefferson County","Zip":98339,"Country":"US","Accuracy Score":1,"Accuracy Type":"rooftop","Number":180,"Street":"Fir Cir","Unit Type":"","Unit Number":"","Source":"Jefferson County GIS CC BY 4.0"},"geometry":{"type":"Point","coordinates":[-122.774623,48.037644]}},{"type":"Feature","properties":{"Name":"Sonny Flores","tag":"SF","Roles":"Past organizer, Lead gleaner","Treechecker":"yes","Address":"723 Discovery Ridge Rd","Phone1":"206-290-1020","phone2":"","Email":"nicrodeo@gmail.com","Tools":"Truck","City":"Port Townsend","State":"WA","County":"Jefferson County","Zip":98368,"Country":"US","Accuracy Score":1,"Accuracy Type":"range_interpolation","Number":723,"Street":"Discovery Ridge Rd","Unit Type":"","Unit Number":"","Source":"TIGER/Line® dataset from the US Census Bureau"},"geometry":{"type":"Point","coordinates":[-122.849626,48.074158]}},{"type":"Feature","properties":{"Name":"Amy O'Shea","tag":"AO","Roles":"","Treechecker":"yes","Address":"1457 Thomas St","Phone1":"608-695-2489","phone2":"","Email":"amyoshea1975@gmail.com","Tools":"","City":"Port Townsend","State":"WA","County":"Jefferson County","Zip":98368,"Country":"US","Accuracy Score":1,"Accuracy Type":"rooftop","Number":1457,"Street":"Thomas St","Unit Type":"","Unit Number":"","Source":"Jefferson County GIS CC BY 4.0"},"geometry":{"type":"Point","coordinates":[-122.799502,48.110323]}},{"type":"Feature","properties":{"Name":"Jim Prince","tag":"JP","Roles":"","Treechecker":"","Address":"","Phone1":"","phone2":"","Email":"","Tools":"","City":"","State":"WA","County":"","Zip":"","Country":"US","Accuracy Score":1,"Accuracy Type":"state","Number":"","Street":"","Unit Type":"","Unit Number":"","Source":"TIGER/Line® dataset from the US Census Bureau"},"geometry":{"type":"Point","coordinates":[-120.5758,47.407324]}},{"type":"Feature","properties":{"Name":"Hailian Zhou","tag":"HZ","Roles":"experienced","Treechecker":"yes","Address":"2249 W. Rosecrans Court","Phone1":"360-531-3244","phone2":"","Email":"hailian.zhou@gmail.com","Tools":"","City":"Port Townsend","State":"WA","County":"Jefferson County","Zip":98368,"Country":"US","Accuracy Score":1,"Accuracy Type":"rooftop","Number":2249,"Street":"W Rosecrans Ct","Unit Type":"","Unit Number":"","Source":"Jefferson County GIS CC BY 4.0"},"geometry":{"type":"Point","coordinates":[-122.797459,48.116162]}},{"type":"Feature","properties":{"Name":"Janice Pastor","tag":"JP","Roles":"new 2021","Treechecker":"yes","Address":"483 Blue Ridge Rd","Phone1":"360-379-6680","phone2":"","Email":"janicepastorfineart@gmail.com","Tools":"","City":"Port Townsend","State":"WA","County":"Jefferson County","Zip":98368,"Country":"US","Accuracy Score":1,"Accuracy Type":"range_interpolation","Number":483,"Street":"Blue Ridge Rd","Unit Type":"","Unit Number":"","Source":"TIGER/Line® dataset from the US Census Bureau"},"geometry":{"type":"Point","coordinates":[-122.847587,48.066031]}},{"type":"Feature","properties":{"Name":"Kathy Darrow","tag":"KD","Roles":"Organizer","Treechecker":"yes","Address":"3403 Sherman Street","Phone1":"623-533-0171","phone2":"","Email":"katherine.darrow@outlook.com; tom.pendley@gmail.com","Tools":"","City":"Port Townsend","State":"WA","County":"Jefferson County","Zip":98368,"Country":"US","Accuracy Score":1,"Accuracy Type":"rooftop","Number":3403,"Street":"Sherman St","Unit Type":"","Unit Number":"","Source":"Jefferson County GIS CC BY 4.0"},"geometry":{"type":"Point","coordinates":[-122.794342,48.125485]}},{"type":"Feature","properties":{"Name":"Seth Rolland","tag":"SR","Roles":"Organizer","Treechecker":"yes","Address":"1039 Jackson st","Phone1":"","phone2":"","Email":"","Tools":"","City":"Port Townsend","State":"WA","County":"Jefferson County","Zip":98368,"Country":"US","Accuracy Score":1,"Accuracy Type":"rooftop","Number":1039,"Street":"Jackson St","Unit Type":"","Unit Number":"","Source":"Jefferson County GIS CC BY 4.0"},"geometry":{"type":"Point","coordinates":[-122.757503,48.122447]}},{"type":"Feature","properties":{"Name":"Tammy Dixon and Marty Stempel","tag":"TD","Roles":"great checkers","Treechecker":"yes","Address":"23 Grant St, B4","Phone1":"818-209-6181.","phone2":"Marty 202-897-5007","Email":"tammyprange@gmail.com","Tools":"","City":"Port Townsend","State":"WA","County":"Jefferson County","Zip":98368,"Country":"US","Accuracy Score":1,"Accuracy Type":"rooftop","Number":23,"Street":"Grant St","Unit Type":"Apt","Unit Number":"B4","Source":"Jefferson County GIS CC BY 4.0"},"geometry":{"type":"Point","coordinates":[-122.793605,48.099889]}},{"type":"Feature","properties":{"Name":"Kimberly Gallagher","tag":"KG","Roles":"may be able to help organize","Treechecker":"yes","Address":"832 Willow Street","Phone1":"","phone2":"","Email":"kimberly@hailmail.net","Tools":"","City":"Port Townsend","State":"WA","County":"Jefferson County","Zip":98368,"Country":"US","Accuracy Score":1,"Accuracy Type":"rooftop","Number":832,"Street":"Willow St","Unit Type":"","Unit Number":"","Source":"Jefferson County GIS CC BY 4.0"},"geometry":{"type":"Point","coordinates":[-122.769535,48.122113]}},{"type":"Feature","properties":{"Name":"Sarah Kozielski","tag":"SK","Roles":"new 2023","Treechecker":"yes","Address":"1134 21st St","Phone1":"713 805 1787","phone2":"","Email":"sar.kozielski281@gmail.com","Tools":"","City":"Port Townsend","State":"WA","County":"Jefferson County","Zip":98368,"Country":"US","Accuracy Score":1,"Accuracy Type":"range_interpolation","Number":1134,"Street":"21st St","Unit Type":"","Unit Number":"","Source":"TIGER/Line® dataset from the US Census Bureau"},"geometry":{"type":"Point","coordinates":[-122.789718,48.115307]}},{"type":"Feature","properties":{"Name":"Bob and Claire Eike","tag":"BE","Roles":"experienced","Treechecker":"?","Address":"5351 Jackman St.","Phone1":"Bob 312-237-5441\r\n \r\n Claire 708-776-3097","phone2":"","Email":"bobeike@gmail.com; claireeike@gmail.com","Tools":"","City":"Port Townsend","State":"WA","County":"Jefferson County","Zip":98368,"Country":"US","Accuracy Score":1,"Accuracy Type":"rooftop","Number":5351,"Street":"Jackman St","Unit Type":"","Unit Number":"","Source":"Jefferson County GIS CC BY 4.0"},"geometry":{"type":"Point","coordinates":[-122.785677,48.138504]}},{"type":"Feature","properties":{"Name":"Cathy Parkman","tag":"CP","Roles":"frequent gleaner","Treechecker":"yes","Address":"857 Tyler st","Phone1":"","phone2":"","Email":"catparkman@gmail.com","Tools":"","City":"Port Townsend","State":"WA","County":"Jefferson County","Zip":98368,"Country":"US","Accuracy Score":1,"Accuracy Type":"rooftop","Number":857,"Street":"Tyler St","Unit Type":"","Unit Number":"","Source":"Jefferson County GIS CC BY 4.0"},"geometry":{"type":"Point","coordinates":[-122.762305,48.118626]}},{"type":"Feature","properties":{"Name":"Kathy Salmonson","tag":"KS","Roles":"pickup truck","Treechecker":"yes","Address":"125 McCurdy Point Road","Phone1":"206.697.2264","phone2":"","Email":"salmongirl7@icloud.com","Tools":"","City":"Port Townsend","State":"WA","County":"Jefferson County","Zip":98368,"Country":"US","Accuracy Score":1,"Accuracy Type":"range_interpolation","Number":125,"Street":"McCurdy Point Rd","Unit Type":"","Unit Number":"","Source":"TIGER/Line® dataset from the US Census Bureau"},"geometry":{"type":"Point","coordinates":[-122.837917,48.129039]}},{"type":"Feature","properties":{"Name":"Michael Zimmerman and Hope Borsato","tag":"MZ","Roles":"new 2022","Treechecker":"yes","Address":"872 East Marrowstone Road","Phone1":"360.774.1295","phone2":"","Email":"mjzimmerman50@gmail.com","Tools":"","City":"Nordland","State":"WA","County":"Jefferson County","Zip":98358,"Country":"US","Accuracy Score":1,"Accuracy Type":"rooftop","Number":872,"Street":"E Marrowstone Rd","Unit Type":"","Unit Number":"","Source":"Jefferson County GIS CC BY 4.0"},"geometry":{"type":"Point","coordinates":[-122.680132,48.02894]}}]}