{"type":"FeatureCollection","features":[{"type":"Feature","properties":{"Name":"Alex Rossoff and Glen","Roles":"Frequent gleaner","TreeChecker":"yes","StreetAddress":"915 Jackson st","City":"PT","Phone1":"206-661-6110","phone2":""},"geometry":{"type":"Point","coordinates":[-122.7564728,48.12181447]}},{"type":"Feature","properties":{"Name":"Cheryl Lowe","Roles":"","TreeChecker":"yes","StreetAddress":"776 53rd st","City":"PT","Phone1":"360-320-4113 cell","phone2":"360-320-6245 home"},"geometry":{"type":"Point","coordinates":[-122.7849823,48.13856615]}},{"type":"Feature","properties":{"Name":"Colleen West","Roles":"","TreeChecker":"willing","StreetAddress":"4303A Discovery Rd","City":"PT","Phone1":"206-484-0528","phone2":""},"geometry":{"type":"Point","coordinates":[-122.8317271,48.05069384]}},{"type":"Feature","properties":{"Name":"Dorothy Westlund","Roles":"frequent gleaner","TreeChecker":"yes","StreetAddress":"4811 Bell St.","City":"PT","Phone1":"379-3578","phone2":""},"geometry":{"type":"Point","coordinates":[-122.8034418,48.13517173]}},{"type":"Feature","properties":{"Name":"Doug Van Allen","Roles":"Lead Gleaner, troubleshooter","TreeChecker":"yes","StreetAddress":"1223 Garfield St","City":"PT","Phone1":"503-476-4478","phone2":""},"geometry":{"type":"Point","coordinates":[-122.7641369,48.11801885]}},{"type":"Feature","properties":{"Name":"Jim Moore","Roles":"Lead Gleaner, troubleshooter","TreeChecker":"yes","StreetAddress":"256 Discovery Ridge Rd","City":"PT","Phone1":"379-2936","phone2":""},"geometry":{"type":"Point","coordinates":[-122.8487131,48.07238878]}},{"type":"Feature","properties":{"Name":"Katie and Steve Appleyard","Roles":"frequent gleaner","TreeChecker":"yes","StreetAddress":"1805 Wilson St, PT.","City":"PT","Phone1":"206-824-7085","phone2":""},"geometry":{"type":"Point","coordinates":[-122.7888911,48.11357612]}},{"type":"Feature","properties":{"Name":"Sandra Wanstall","Roles":"experienced","TreeChecker":"yes","StreetAddress":"1523 Madison St.,","City":"PT","Phone1":"206-501-5499","phone2":""},"geometry":{"type":"Point","coordinates":[-122.7619598,48.12423504]}},{"type":"Feature","properties":{"Name":"Sonny Flores","Roles":"Past organizer, Lead gleaner","TreeChecker":"yes","StreetAddress":"723 Discovery Ridge Rd, PT","City":"PT","Phone1":"206-290-1020","phone2":""},"geometry":{"type":"Point","coordinates":[-122.8494739,48.07621834]}},{"type":"Feature","properties":{"Name":"Amy O'Shea","Roles":"","TreeChecker":"yes","StreetAddress":"1457 Thomas St","City":"PT","Phone1":"608-695-2489","phone2":""},"geometry":{"type":"Point","coordinates":[-122.7995162,48.11049127]}}]}